{
"type": "FeatureCollection",
"name": "sea",
"crs": { "type": "name", "properties": { "name": "urn:ogc:def:crs:OGC:1.3:CRS84" } },
"features": [
{ "type": "Feature", "properties": { "id": 1, "NOM": "Golfe Est" }, "geometry": { "type": "Point", "coordinates": [ -2.7589, 47.1214 ] } },
{ "type": "Feature", "properties": { "id": 2, "NOM": "Golfe Ouest" }, "geometry": { "type": "Point", "coordinates": [ -3.883, 47.4777 ] } },
{ "type": "Feature", "properties": { "id": 3, "NOM": "Mer d'Iroise" }, "geometry": { "type": "Point", "coordinates": [ -5.1415, 48.1464 ] } },
{ "type": "Feature", "properties": { "id": 4, "NOM": "Manche Ouest" }, "geometry": { "type": "Point", "coordinates": [ -3.8586, 48.9792 ] } },
{ "type": "Feature", "properties": { "id": 5, "NOM": "Manche Est" }, "geometry": { "type": "Point", "coordinates": [ -2.1602, 48.895 ] } }
]
}
